timestamp_iso,timestamp_ms,droneID,aircraftAltitude,aircraftLatitude,aircraftLongitude,batteryPercentage,currentWaypointMissionPlanner,distanceToHome,gimbal_PITCH,gimbal_ROLL,gimbal_YAW,headingDroneDegress,homeAltitude,homeLatitude,homeLongitude,isInMission,missionPlan,v_total,vx,vy,vz
2025-07-14T15:31:55.773000Z,1752507115773,drone1,1.0,55.788,-4.526,44.98,,0,7.6000000000000005,0.0,-71.9,-92.0,0,4.58,4.58,False,,0.0,0.0,0.0,0.0
2025-07-14T15:31:55.974000Z,1752507115974,drone1,2.0,55.788,-4.526,44.959999999999994,,0,7.6000000000000005,0.0,-71.9,-92.0,0,4.58,4.58,False,,4.975124378109452,0.0,0.0,4.975124378109452
2025-07-14T15:31:56.174000Z,1752507116174,drone1,3.0,55.788,-4.526,44.93999999999999,,0,7.6000000000000005,0.0,-71.9,-92.0,0,4.58,4.58,False,,5.0,0.0,0.0,5.0
2025-07-14T15:31:56.375000Z,1752507116375,drone1,4.0,55.788,-4.526,44.91999999999999,,0,7.6000000000000005,0.0,-71.9,-92.0,0,4.58,4.58,False,,4.975124378109452,0.0,0.0,4.975124378109452
2025-07-14T15:31:56.576000Z,1752507116576,drone1,5.0,55.788,-4.526,44.899999999999984,,0,7.6000000000000005,0.0,-71.9,-92.0,0,4.58,4.58,False,,4.975124378109452,0.0,0.0,4.975124378109452
2025-07-14T15:31:56.777000Z,1752507116777,drone1,6.0,55.788,-4.526,44.87999999999998,,0,7.6000000000000005,0.0,-71.9,-92.0,0,4.58,4.58,False,,4.975124378109452,0.0,0.0,4.975124378109452
2025-07-14T15:31:56.978000Z,1752507116978,drone1,7.0,55.788,-4.526,44.85999999999998,,0,7.6000000000000005,0.0,-71.9,-92.0,0,4.58,4.58,False,,4.975124378109452,0.0,0.0,4.975124378109452
2025-07-14T15:31:57.179000Z,1752507117179,drone1,8.0,55.788,-4.526,44.839999999999975,,0,7.6000000000000005,0.0,-71.9,-92.0,0,4.58,4.58,False,,4.975124378109452,0.0,0.0,4.975124378109452
2025-07-14T15:31:57.380000Z,1752507117380,drone1,9.0,55.788,-4.526,44.81999999999997,,0,7.6000000000000005,0.0,-71.9,-92.0,0,4.58,4.58,False,,4.975124378109452,0.0,0.0,4.975124378109452
2025-07-14T15:31:57.581000Z,1752507117581,drone1,10.0,55.788,-4.526,44.79999999999997,,0,7.6000000000000005,0.0,-71.9,-92.0,0,4.58,4.58,False,,4.975124378109452,0.0,0.0,4.975124378109452
2025-07-14T15:31:57.781000Z,1752507117781,drone1,11.0,55.788,-4.526,44.779999999999966,,0,7.6000000000000005,0.0,-71.9,-92.0,0,4.58,4.58,False,,5.0,0.0,0.0,5.0
2025-07-14T15:31:57.982000Z,1752507117982,drone1,12.0,55.788,-4.526,44.75999999999996,,0,7.6000000000000005,0.0,-71.9,-92.0,0,4.58,4.58,False,,4.975124378109452,0.0,0.0,4.975124378109452
2025-07-14T15:31:58.183000Z,1752507118183,drone1,13.0,55.788,-4.526,44.73999999999996,,0,7.6000000000000005,0.0,-71.9,-92.0,0,4.58,4.58,False,,4.975124378109452,0.0,0.0,4.975124378109452
2025-07-14T15:31:58.384000Z,1752507118384,drone1,14.0,55.788,-4.526,44.719999999999956,,0,7.6000000000000005,0.0,-71.9,-92.0,0,4.58,4.58,False,,4.975124378109452,0.0,0.0,4.975124378109452
2025-07-14T15:31:58.585000Z,1752507118585,drone1,15.0,55.788,-4.526,44.69999999999995,,0,7.6000000000000005,0.0,-71.9,-92.0,0,4.58,4.58,False,,4.975124378109452,0.0,0.0,4.975124378109452
2025-07-14T15:31:58.786000Z,1752507118786,drone1,16.0,55.788,-4.526,44.67999999999995,,0,7.6000000000000005,0.0,-71.9,-92.0,0,4.58,4.58,False,,4.975124378109452,0.0,0.0,4.975124378109452
2025-07-14T15:31:58.987000Z,1752507118987,drone1,17.0,55.788,-4.526,44.65999999999995,,0,7.6000000000000005,0.0,-71.9,-92.0,0,4.58,4.58,False,,4.975124378109452,0.0,0.0,4.975124378109452
2025-07-14T15:31:59.188000Z,1752507119188,drone1,18.0,55.788,-4.526,44.639999999999944,,0,7.6000000000000005,0.0,-71.9,-92.0,0,4.58,4.58,False,,4.975124378109452,0.0,0.0,4.975124378109452
2025-07-14T15:31:59.388000Z,1752507119388,drone1,19.0,55.788,-4.526,44.61999999999994,,0,7.6000000000000005,0.0,-71.9,-92.0,0,4.58,4.58,False,,5.0,0.0,0.0,5.0
2025-07-14T15:31:59.589000Z,1752507119589,drone1,20.0,55.788,-4.526,44.59999999999994,,0,7.6000000000000005,0.0,-71.9,-92.0,0,4.58,4.58,False,,4.975124378109452,0.0,0.0,4.975124378109452
2025-07-14T15:31:59.790000Z,1752507119790,drone1,21.0,55.788,-4.526,44.579999999999934,,0,7.6000000000000005,0.0,-71.9,-92.0,0,4.58,4.58,False,,4.975124378109452,0.0,0.0,4.975124378109452
2025-07-14T15:31:59.991000Z,1752507119991,drone1,22.0,55.788,-4.526,44.55999999999993,,0,7.6000000000000005,0.0,-71.9,-92.0,0,4.58,4.58,False,,4.975124378109452,0.0,0.0,4.975124378109452
2025-07-14T15:32:00.192000Z,1752507120192,drone1,23.0,55.788,-4.526,44.53999999999993,,0,7.6000000000000005,0.0,-71.9,-92.0,0,4.58,4.58,False,,4.975124378109452,0.0,0.0,4.975124378109452
2025-07-14T15:32:00.393000Z,1752507120393,drone1,24.0,55.788,-4.526,44.519999999999925,,0,7.6000000000000005,0.0,-71.9,-92.0,0,4.58,4.58,False,,4.975124378109452,0.0,0.0,4.975124378109452
2025-07-14T15:32:00.593000Z,1752507120593,drone1,25.0,55.788,-4.526,44.49999999999992,,0,7.6000000000000005,0.0,-71.9,-92.0,0,4.58,4.58,False,,5.0,0.0,0.0,5.0
2025-07-14T15:32:00.794000Z,1752507120794,drone1,26.0,55.788,-4.526,44.47999999999992,,0,7.6000000000000005,0.0,-71.9,-92.0,0,4.58,4.58,False,,4.975124378109452,0.0,0.0,4.975124378109452
2025-07-14T15:32:00.995000Z,1752507120995,drone1,27.0,55.788,-4.526,44.459999999999916,,0,7.6000000000000005,0.0,-71.9,-92.0,0,4.58,4.58,False,,4.975124378109452,0.0,0.0,4.975124378109452
2025-07-14T15:32:01.196000Z,1752507121196,drone1,28.0,55.788,-4.526,44.43999999999991,,0,7.6000000000000005,0.0,-71.9,-92.0,0,4.58,4.58,False,,4.975124378109452,0.0,0.0,4.975124378109452
2025-07-14T15:32:01.397000Z,1752507121397,drone1,29.0,55.788,-4.526,44.41999999999991,,0,7.6000000000000005,0.0,-71.9,-92.0,0,4.58,4.58,False,,4.975124378109452,0.0,0.0,4.975124378109452
2025-07-14T15:32:01.598000Z,1752507121598,drone1,30.0,55.788,-4.526,44.399999999999906,,0,7.6000000000000005,0.0,-71.9,-92.0,0,4.58,4.58,False,,4.975124378109452,0.0,0.0,4.975124378109452
2025-07-14T15:32:01.799000Z,1752507121799,drone1,30.0,55.788002597402595,-4.526044545454545,44.34999999999991,0.0,0,9.104190513075505,0.0,-71.84810525410433,275.92073483767354,0,4.58,4.58,True,"[{'latitude': 55.7882, 'longitude': -4.52943, 'altitude': 30}, {'latitude': 55.7882, 'longitude': -4.53213, 'altitude': 30}, {'latitude': 55.78948, 'longitude': -4.53213, 'altitude': 30}, {'latitude': 55.78948, 'longitude': -4.52943, 'altitude': 30}, {'latitude': 55.7882, 'longitude': -4.52943, 'altitude': 30}]",13.945561187523767,-13.871169782971911,1.4385150979173877,0.0
2025-07-14T15:32:02.801000Z,1752507122801,drone1,30.0,55.78800772474279,-4.526132479338843,44.29999999999991,0.0,0,7.5045039737701895,0.0,-70.98941641380648,275.920753353913,0,4.58,4.58,True,"[{'latitude': 55.7882, 'longitude': -4.52943, 'altitude': 30}, {'latitude': 55.7882, 'longitude': -4.53213, 'altitude': 30}, {'latitude': 55.78948, 'longitude': -4.53213, 'altitude': 30}, {'latitude': 55.78948, 'longitude': -4.52943, 'altitude': 30}, {'latitude': 55.7882, 'longitude': -4.52943, 'altitude': 30}]",5.522263830881283,-5.492805780539247,0.5696336323763255,0.0
2025-07-14T15:32:03.803000Z,1752507123803,drone1,30.0,55.788015215986576,-4.526260954169797,44.249999999999915,0.0,0,9.48288062907146,0.0,-69.62283799774292,275.9207710601592,0,4.58,4.58,True,"[{'latitude': 55.7882, 'longitude': -4.52943, 'altitude': 30}, {'latitude': 55.7882, 'longitude': -4.53213, 'altitude': 30}, {'latitude': 55.78948, 'longitude': -4.53213, 'altitude': 30}, {'latitude': 55.78948, 'longitude': -4.52943, 'altitude': 30}, {'latitude': 55.7882, 'longitude': -4.52943, 'altitude': 30}]",8.068241317144082,-8.025201951015978,0.832256929727955,0.0
2025-07-14T15:32:04.805000Z,1752507124805,drone1,30.0,55.788024815156106,-4.52642557992721,44.19999999999992,0.0,0,10.811177911073013,0.0,-70.58163738961598,275.92078730280963,0,4.58,4.58,True,"[{'latitude': 55.7882, 'longitude': -4.52943, 'altitude': 30}, {'latitude': 55.7882, 'longitude': -4.53213, 'altitude': 30}, {'latitude': 55.78948, 'longitude': -4.53213, 'altitude': 30}, {'latitude': 55.78948, 'longitude': -4.52943, 'altitude': 30}, {'latitude': 55.7882, 'longitude': -4.52943, 'altitude': 30}]",10.33852342678342,-10.283373404420695,1.0664417805968993,0.0
2025-07-14T15:32:05.806000Z,1752507125806,drone1,30.0,55.78803619079532,-4.526620672139729,44.14999999999992,0.0,0,10.797985358481585,0.0,-68.81810934642552,275.9208014741694,0,4.58,4.58,True,"[{'latitude': 55.7882, 'longitude': -4.52943, 'altitude': 30}, {'latitude': 55.7882, 'longitude': -4.53213, 'altitude': 30}, {'latitude': 55.78948, 'longitude': -4.53213, 'altitude': 30}, {'latitude': 55.78948, 'longitude': -4.52943, 'altitude': 30}, {'latitude': 55.7882, 'longitude': -4.52943, 'altitude': 30}]",12.264057908900318,-12.198636242704119,1.2650652991233058,0.0
2025-07-14T15:32:06.808000Z,1752507126808,drone1,30.0,55.78804895514893,-4.5268395808041655,44.09999999999992,0.0,0,10.80929210060053,0.0,-69.68474618856312,275.9208131531922,0,4.58,4.58,True,"[{'latitude': 55.7882, 'longitude': -4.52943, 'altitude': 30}, {'latitude': 55.7882, 'longitude': -4.53213, 'altitude': 30}, {'latitude': 55.78948, 'longitude': -4.53213, 'altitude': 30}, {'latitude': 55.78948, 'longitude': -4.52943, 'altitude': 30}, {'latitude': 55.7882, 'longitude': -4.52943, 'altitude': 30}]",13.74749063939637,-13.674155671158225,1.4180851741775407,0.0
2025-07-14T15:32:07.810000Z,1752507127810,drone1,30.0,55.788062686499025,-4.527075073458332,44.049999999999926,0.0,0,9.79301600960792,0.0,-70.16030324198302,275.92082200402757,0,4.58,4.58,True,"[{'latitude': 55.7882, 'longitude': -4.52943, 'altitude': 30}, {'latitude': 55.7882, 'longitude': -4.53213, 'altitude': 30}, {'latitude': 55.78948, 'longitude': -4.53213, 'altitude': 30}, {'latitude': 55.78948, 'longitude': -4.52943, 'altitude': 30}, {'latitude': 55.7882, 'longitude': -4.52943, 'altitude': 30}]",14.788962227079057,-14.710071552797533,1.5255158686647283,0.0
2025-07-14T15:32:08.812000Z,1752507128812,drone1,30.0,55.78807695283679,-4.527319741150973,43.99999999999993,0.0,0,8.211435072741258,0.0,-72.02594824381403,275.92082791216825,0,4.58,4.58,True,"[{'latitude': 55.7882, 'longitude': -4.52943, 'altitude': 30}, {'latitude': 55.7882, 'longitude': -4.53213, 'altitude': 30}, {'latitude': 55.78948, 'longitude': -4.53213, 'altitude': 30}, {'latitude': 55.78948, 'longitude': -4.52943, 'altitude': 30}, {'latitude': 55.7882, 'longitude': -4.52943, 'altitude': 30}]",15.36515009792332,-15.283185731663048,1.584951552320792,0.0
2025-07-14T15:32:09.813000Z,1752507129813,drone1,30.0,55.78809133497275,-4.527566394782677,43.94999999999993,0.0,0,9.10821175862551,0.0,-71.65713576840076,275.920830894651,0,4.58,4.58,True,"[{'latitude': 55.7882, 'longitude': -4.52943, 'altitude': 30}, {'latitude': 55.7882, 'longitude': -4.53213, 'altitude': 30}, {'latitude': 55.78948, 'longitude': -4.53213, 'altitude': 30}, {'latitude': 55.78948, 'longitude': -4.52943, 'altitude': 30}, {'latitude': 55.7882, 'longitude': -4.52943, 'altitude': 30}]",15.505335977357868,-15.422623738573654,1.5994126387936025,0.0
2025-07-14T15:32:10.814000Z,1752507130814,drone1,30.0,55.78810544731395,-4.527808421434277,43.899999999999935,0.0,0,8.990637529408966,0.0,-71.69998539469317,275.9208311308024,0,4.58,4.58,True,"[{'latitude': 55.7882, 'longitude': -4.52943, 'altitude': 30}, {'latitude': 55.7882, 'longitude': -4.53213, 'altitude': 30}, {'latitude': 55.78948, 'longitude': -4.53213, 'altitude': 30}, {'latitude': 55.78948, 'longitude': -4.52943, 'altitude': 30}, {'latitude': 55.7882, 'longitude': -4.52943, 'altitude': 30}]",15.214465583771581,-15.133304915849111,1.5694092276098865,0.0
2025-07-14T15:32:11.816000Z,1752507131816,drone1,30.0,55.788118954840535,-4.5280400755150945,43.84999999999994,0.0,0,7.057895308546801,0.0,-70.37512353347836,275.92082892799226,0,4.58,4.58,True,"[{'latitude': 55.7882, 'longitude': -4.52943, 'altitude': 30}, {'latitude': 55.7882, 'longitude': -4.53213, 'altitude': 30}, {'latitude': 55.78948, 'longitude': -4.53213, 'altitude': 30}, {'latitude': 55.78948, 'longitude': -4.52943, 'altitude': 30}, {'latitude': 55.7882, 'longitude': -4.52943, 'altitude': 30}]",14.547878605982415,-14.470273752336302,1.5006496815872585,0.0
2025-07-14T15:32:12.818000Z,1752507132818,drone1,30.0,55.788131585254995,-4.528256687123132,43.79999999999994,0.0,0,5.692622568457409,0.0,-71.7696476826764,275.9208246815867,0,4.58,4.58,True,"[{'latitude': 55.7882, 'longitude': -4.52943, 'altitude': 30}, {'latitude': 55.7882, 'longitude': -4.53213, 'altitude': 30}, {'latitude': 55.78948, 'longitude': -4.53213, 'altitude': 30}, {'latitude': 55.78948, 'longitude': -4.52943, 'altitude': 30}, {'latitude': 55.7882, 'longitude': -4.52943, 'altitude': 30}]",13.60320664886932,-13.530641047286949,1.4032048964124861,0.0
2025-07-14T15:32:13.820000Z,1752507133820,drone1,30.0,55.78814313579636,-4.528454778907538,43.74999999999994,0.0,0,7.145469889554819,0.0,-72.31017449964939,275.92081884358777,0,4.58,4.58,True,"[{'latitude': 55.7882, 'longitude': -4.52943, 'altitude': 30}, {'latitude': 55.7882, 'longitude': -4.53213, 'altitude': 30}, {'latitude': 55.78948, 'longitude': -4.53213, 'altitude': 30}, {'latitude': 55.78948, 'longitude': -4.52943, 'altitude': 30}, {'latitude': 55.7882, 'longitude': -4.52943, 'altitude': 30}]",12.440158104667566,-12.37379668442289,1.283233915422746,0.0
2025-07-14T15:32:14.821000Z,1752507134821,drone1,30.0,55.78815347474248,-4.5286320918334395,43.699999999999946,0.0,0,6.981859724336049,0.0,-72.51234329098719,275.92081191240163,0,4.58,4.58,True,"[{'latitude': 55.7882, 'longitude': -4.52943, 'altitude': 30}, {'latitude': 55.7882, 'longitude': -4.53213, 'altitude': 30}, {'latitude': 55.78948, 'longitude': -4.53213, 'altitude': 30}, {'latitude': 55.78948, 'longitude': -4.52943, 'altitude': 30}, {'latitude': 55.7882, 'longitude': -4.52943, 'altitude': 30}]",11.146367439369767,-11.08690764954442,1.149776440842292,0.0
2025-07-14T15:32:15.823000Z,1752507135823,drone1,30.0,55.78816253810434,-4.5287875284892625,43.64999999999995,0.0,0,8.225390070370452,0.0,-73.12963433527798,275.92080432164346,0,4.58,4.58,True,"[{'latitude': 55.7882, 'longitude': -4.52943, 'altitude': 30}, {'latitude': 55.7882, 'longitude': -4.53213, 'altitude': 30}, {'latitude': 55.78948, 'longitude': -4.53213, 'altitude': 30}, {'latitude': 55.78948, 'longitude': -4.52943, 'altitude': 30}, {'latitude': 55.7882, 'longitude': -4.52943, 'altitude': 30}]",9.761412193813422,-9.709340358976009,1.0069149969530649,0.0
2025-07-14T15:32:16.825000Z,1752507136825,drone1,30.0,55.78817032239434,-4.528921029062922,43.59999999999995,0.0,0,7.928086818973487,0.0,-74.22789444918345,275.9207965221301,0,4.58,4.58,True,"[{'latitude': 55.7882, 'longitude': -4.52943, 'altitude': 30}, {'latitude': 55.7882, 'longitude': -4.53213, 'altitude': 30}, {'latitude': 55.78948, 'longitude': -4.53213, 'altitude': 30}, {'latitude': 55.78948, 'longitude': -4.52943, 'altitude': 30}, {'latitude': 55.7882, 'longitude': -4.52943, 'altitude': 30}]",8.383825822129685,-8.339102643612907,0.8648135724517154,0.0
2025-07-14T15:32:17.827000Z,1752507137827,drone1,30.0,55.788176874593,-4.529033399269809,43.549999999999955,0.0,0,9.089094288626606,0.0,-75.7031585357115,275.9207888769844,0,4.58,4.58,True,"[{'latitude': 55.7882, 'longitude': -4.52943, 'altitude': 30}, {'latitude': 55.7882, 'longitude': -4.53213, 'altitude': 30}, {'latitude': 55.78948, 'longitude': -4.53213, 'altitude': 30}, {'latitude': 55.78948, 'longitude': -4.52943, 'altitude': 30}, {'latitude': 55.7882, 'longitude': -4.52943, 'altitude': 30}]",7.05683911918938,-7.019194683553776,0.7279315548126463,0.0
2025-07-14T15:32:18.828000Z,1752507138828,drone1,30.0,55.7881822805323,-4.529126111128815,43.49999999999996,0.0,0,8.780162834759949,0.0,-75.2388235042312,275.9207816373214,0,4.58,4.58,True,"[{'latitude': 55.7882, 'longitude': -4.52943, 'altitude': 30}, {'latitude': 55.7882, 'longitude': -4.53213, 'altitude': 30}, {'latitude': 55.78948, 'longitude': -4.53213, 'altitude': 30}, {'latitude': 55.78948, 'longitude': -4.52943, 'altitude': 30}, {'latitude': 55.7882, 'longitude': -4.52943, 'altitude': 30}]",5.828112194570716,-5.79702234583605,0.6011852246865294,0.0
2025-07-14T15:32:19.830000Z,1752507139830,drone1,30.0,55.78818665286848,-4.5292010966944325,43.44999999999996,0.0,0,8.591244146538884,0.0,-73.47693367595396,275.9207750521948,0,4.58,4.58,True,"[{'latitude': 55.7882, 'longitude': -4.52943, 'altitude': 30}, {'latitude': 55.7882, 'longitude': -4.53213, 'altitude': 30}, {'latitude': 55.78948, 'longitude': -4.53213, 'altitude': 30}, {'latitude': 55.78948, 'longitude': -4.52943, 'altitude': 30}, {'latitude': 55.7882, 'longitude': -4.52943, 'altitude': 30}]",4.709085632357152,-4.683965183133875,0.4857547282962944,0.0
2025-07-14T15:32:20.832000Z,1752507140832,drone1,30.0,55.78819011965589,-4.529260552098476,43.39999999999996,0.0,0,8.986785030514609,0.0,-73.17578489374365,275.92076921511944,0,4.58,4.58,True,"[{'latitude': 55.7882, 'longitude': -4.52943, 'altitude': 30}, {'latitude': 55.7882, 'longitude': -4.53213, 'altitude': 30}, {'latitude': 55.78948, 'longitude': -4.53213, 'altitude': 30}, {'latitude': 55.78948, 'longitude': -4.52943, 'altitude': 30}, {'latitude': 55.7882, 'longitude': -4.52943, 'altitude': 30}]",3.7337927475898773,-3.7138749594896656,0.38515070716590966,0.0
2025-07-14T15:32:21.834000Z,1752507141834,drone1,30.0,55.78819281429519,-4.529306765162528,43.349999999999966,0.0,0,10.841076315396624,0.0,-72.17741969604135,275.9207642183088,0,4.58,4.58,True,"[{'latitude': 55.7882, 'longitude': -4.52943, 'altitude': 30}, {'latitude': 55.7882, 'longitude': -4.53213, 'altitude': 30}, {'latitude': 55.78948, 'longitude': -4.53213, 'altitude': 30}, {'latitude': 55.78948, 'longitude': -4.52943, 'altitude': 30}, {'latitude': 55.7882, 'longitude': -4.52943, 'altitude': 30}]",2.902175044973343,-2.886693490215427,0.29936714117267593,0.0
2025-07-14T15:32:22.836000Z,1752507142836,drone1,30.0,55.78819486735371,-4.5293419751160915,43.29999999999997,0.0,0,10.288045301682114,0.0,-70.56729618051344,275.9207600166242,0,4.58,4.58,True,"[{'latitude': 55.7882, 'longitude': -4.52943, 'altitude': 30}, {'latitude': 55.7882, 'longitude': -4.53213, 'altitude': 30}, {'latitude': 55.78948, 'longitude': -4.53213, 'altitude': 30}, {'latitude': 55.78948, 'longitude': -4.52943, 'altitude': 30}, {'latitude': 55.7882, 'longitude': -4.52943, 'altitude': 30}]",2.211180853303869,-2.199385382332083,0.22808925007896527,0.0
2025-07-14T15:32:23.838000Z,1752507143838,drone1,30.0,55.78819640048182,-4.529368268263233,43.24999999999997,0.0,0,9.19318128336974,0.0,-71.54919444715068,275.92075661729575,0,4.58,4.58,True,"[{'latitude': 55.7882, 'longitude': -4.52943, 'altitude': 30}, {'latitude': 55.7882, 'longitude': -4.53213, 'altitude': 30}, {'latitude': 55.78948, 'longitude': -4.53213, 'altitude': 30}, {'latitude': 55.78948, 'longitude': -4.52943, 'altitude': 30}, {'latitude': 55.7882, 'longitude': -4.52943, 'altitude': 30}]",1.6512064061627056,-1.6423980995062604,0.17032638812286957,0.0
2025-07-14T15:32:24.840000Z,1752507144840,drone1,30.0,55.78819752240957,-4.529387509324043,43.199999999999974,0.0,0,7.352617366614481,0.0,-70.53974892779038,275.92075388596066,0,4.58,4.58,True,"[{'latitude': 55.7882, 'longitude': -4.52943, 'altitude': 30}, {'latitude': 55.7882, 'longitude': -4.53213, 'altitude': 30}, {'latitude': 55.78948, 'longitude': -4.53213, 'altitude': 30}, {'latitude': 55.78948, 'longitude': -4.52943, 'altitude': 30}, {'latitude': 55.7882, 'longitude': -4.52943, 'altitude': 30}]",1.20833621133162,-1.2018903808187258,0.12464313904371839,0.0
2025-07-14T15:32:25.842000Z,1752507145842,drone1,30.0,55.78819832682205,-4.529401304998055,43.14999999999998,0.0,0,8.832258749754168,0.0,-72.53385822074694,275.920751778445,0,4.58,4.58,True,"[{'latitude': 55.7882, 'longitude': -4.52943, 'altitude': 30}, {'latitude': 55.7882, 'longitude': -4.53213, 'altitude': 30}, {'latitude': 55.78948, 'longitude': -4.53213, 'altitude': 30}, {'latitude': 55.78948, 'longitude': -4.52943, 'altitude': 30}, {'latitude': 55.7882, 'longitude': -4.52943, 'altitude': 30}]",0.8663665805618995,-0.861744975779033,0.08936805152912462,0.0
2025-07-14T15:32:26.844000Z,1752507146844,drone1,30.0,55.788198891791225,-4.529410994219491,43.09999999999998,0.0,0,8.1291089032245,0.0,-72.63006523831676,275.92075019355093,0,4.58,4.58,True,"[{'latitude': 55.7882, 'longitude': -4.52943, 'altitude': 30}, {'latitude': 55.7882, 'longitude': -4.53213, 'altitude': 30}, {'latitude': 55.78948, 'longitude': -4.53213, 'altitude': 30}, {'latitude': 55.78948, 'longitude': -4.52943, 'altitude': 30}, {'latitude': 55.7882, 'longitude': -4.52943, 'altitude': 30}]",0.6084818682906546,-0.6052359411728624,0.06276654802587926,0.0
2025-07-14T15:32:27.845000Z,1752507147845,drone1,30.0,55.788199280383914,-4.529417658584085,43.04999999999998,0.0,0,7.445111865941376,0.0,-72.30785344472893,275.92074911369394,0,4.58,4.58,True,"[{'latitude': 55.7882, 'longitude': -4.52943, 'altitude': 30}, {'latitude': 55.7882, 'longitude': -4.53213, 'altitude': 30}, {'latitude': 55.78948, 'longitude': -4.53213, 'altitude': 30}, {'latitude': 55.78948, 'longitude': -4.52943, 'altitude': 30}, {'latitude': 55.7882, 'longitude': -4.52943, 'altitude': 30}]",0.4189393431452972,-0.41670452449483364,0.043214725505869696,0.0
2025-07-14T15:32:28.846000Z,1752507148846,drone1,30.0,55.78819954206249,-4.52942214637169,42.999999999999986,0.0,0,6.194070781448136,0.0,-71.24019501479755,275.92074811686587,0,4.58,4.58,True,"[{'latitude': 55.7882, 'longitude': -4.52943, 'altitude': 30}, {'latitude': 55.7882, 'longitude': -4.53213, 'altitude': 30}, {'latitude': 55.78948, 'longitude': -4.53213, 'altitude': 30}, {'latitude': 55.78948, 'longitude': -4.52943, 'altitude': 30}, {'latitude': 55.7882, 'longitude': -4.52943, 'altitude': 30}]",0.2821140334996097,-0.28060910509159753,0.029100825368220867,0.0
2025-07-14T15:32:29.848000Z,1752507149848,drone1,30.0,55.78819971453247,-4.529425104231703,42.94999999999999,0.0,0,7.169815561425244,0.0,-72.78645570154093,275.9207477015,0,4.58,4.58,True,"[{'latitude': 55.7882, 'longitude': -4.52943, 'altitude': 30}, {'latitude': 55.7882, 'longitude': -4.53213, 'altitude': 30}, {'latitude': 55.78948, 'longitude': -4.53213, 'altitude': 30}, {'latitude': 55.78948, 'longitude': -4.52943, 'altitude': 30}, {'latitude': 55.7882, 'longitude': -4.52943, 'altitude': 30}]",0.18575322615279438,-0.18476233140112577,0.01916094782080859,0.0
2025-07-14T15:32:30.850000Z,1752507150850,drone1,30.0,55.78819982575359,-4.529427011673897,42.89999999999999,0.0,0,7.419424409299944,0.0,-72.24351827912551,275.92074718740616,0,4.58,4.58,True,"[{'latitude': 55.7882, 'longitude': -4.52943, 'altitude': 30}, {'latitude': 55.7882, 'longitude': -4.53213, 'altitude': 30}, {'latitude': 55.78948, 'longitude': -4.53213, 'altitude': 30}, {'latitude': 55.78948, 'longitude': -4.52943, 'altitude': 30}, {'latitude': 55.7882, 'longitude': -4.52943, 'altitude': 30}]",0.11978712253914606,-0.11914812190784445,0.012356365648597167,0.0
2025-07-14T15:32:31.852000Z,1752507151852,drone1,30.0,55.78819989590474,-4.529428214766224,42.849999999999994,0.0,0,7.634644047761039,0.0,-72.54659479483627,275.9207467095751,0,4.58,4.58,True,"[{'latitude': 55.7882, 'longitude': -4.52943, 'altitude': 30}, {'latitude': 55.7882, 'longitude': -4.53213, 'altitude': 30}, {'latitude': 55.78948, 'longitude': -4.53213, 'altitude': 30}, {'latitude': 55.78948, 'longitude': -4.52943, 'altitude': 30}, {'latitude': 55.7882, 'longitude': -4.52943, 'altitude': 30}]",0.07555404199675915,-0.07515100138180353,0.007793603361745474,0.0
2025-07-14T15:32:32.854000Z,1752507152854,drone1,30.0,55.78819993916511,-4.529428956681559,42.8,0.0,0,7.460919234963552,0.0,-71.13663528851538,275.9207475646501,0,4.58,4.58,True,"[{'latitude': 55.7882, 'longitude': -4.52943, 'altitude': 30}, {'latitude': 55.7882, 'longitude': -4.53213, 'altitude': 30}, {'latitude': 55.78948, 'longitude': -4.53213, 'altitude': 30}, {'latitude': 55.78948, 'longitude': -4.52943, 'altitude': 30}, {'latitude': 55.7882, 'longitude': -4.52943, 'altitude': 30}]",0.046592186752264814,-0.046343642177876045,0.004806110282433133,0.0
2025-07-14T15:32:33.856000Z,1752507153856,drone1,30.0,55.788199965237204,-4.529429403818034,42.75,0.0,0,7.380115204859024,0.0,-72.41905508078958,275.92074280390824,0,4.58,4.58,True,"[{'latitude': 55.7882, 'longitude': -4.52943, 'altitude': 30}, {'latitude': 55.7882, 'longitude': -4.53213, 'altitude': 30}, {'latitude': 55.78948, 'longitude': -4.53213, 'altitude': 30}, {'latitude': 55.78948, 'longitude': -4.52943, 'altitude': 30}, {'latitude': 55.7882, 'longitude': -4.52943, 'altitude': 30}]",0.02808011247385222,-0.027930320041419356,0.0028965391293885945,0.0
2025-07-14T15:32:34.857000Z,1752507154857,drone1,30.0,55.78819998058701,-4.529429667067213,42.7,0.0,0,9.23228090739444,0.0,-72.30787856612928,275.9207472042709,0,4.58,4.58,True,"[{'latitude': 55.7882, 'longitude': -4.52943, 'altitude': 30}, {'latitude': 55.7882, 'longitude': -4.53213, 'altitude': 30}, {'latitude': 55.78948, 'longitude': -4.53213, 'altitude': 30}, {'latitude': 55.78948, 'longitude': -4.52943, 'altitude': 30}, {'latitude': 55.7882, 'longitude': -4.52943, 'altitude': 30}]",0.016548529769196622,-0.01646025217420663,0.0017070254489938701,0.0
2025-07-14T15:32:35.858000Z,1752507155858,drone1,30.0,55.7881999894111,-4.529429818400298,42.650000000000006,0.0,0,8.806476738982667,0.0,-72.35670223272714,275.92074838043845,0,4.58,4.58,True,"[{'latitude': 55.7882, 'longitude': -4.52943, 'altitude': 30}, {'latitude': 55.7882, 'longitude': -4.53213, 'altitude': 30}, {'latitude': 55.78948, 'longitude': -4.53213, 'altitude': 30}, {'latitude': 55.78948, 'longitude': -4.52943, 'altitude': 30}, {'latitude': 55.7882, 'longitude': -4.52943, 'altitude': 30}]",0.009513192277080439,-0.009462444434551472,0.0009813116853114403,0.0
2025-07-14T15:32:36.860000Z,1752507156860,drone1,30.0,55.788199994361754,-4.529429903304055,42.60000000000001,0.0,0,7.917773488509502,0.0,-74.05377228910172,275.92075138279375,0,4.58,4.58,True,"[{'latitude': 55.7882, 'longitude': -4.52943, 'altitude': 30}, {'latitude': 55.7882, 'longitude': -4.53213, 'altitude': 30}, {'latitude': 55.78948, 'longitude': -4.53213, 'altitude': 30}, {'latitude': 55.78948, 'longitude': -4.52943, 'altitude': 30}, {'latitude': 55.7882, 'longitude': -4.52943, 'altitude': 30}]",0.005331944904575669,-0.00530350180779358,0.0005500045819451602,0.0
2025-07-14T15:32:37.861000Z,1752507157861,drone1,30.0,55.78819999707104,-4.52942994976834,42.55000000000001,0.0,0,7.061545414670803,0.0,-74.33009091864777,275.92074158711614,0,4.58,4.58,True,"[{'latitude': 55.7882, 'longitude': -4.52943, 'altitude': 30}, {'latitude': 55.7882, 'longitude': -4.53213, 'altitude': 30}, {'latitude': 55.78948, 'longitude': -4.53213, 'altitude': 30}, {'latitude': 55.78948, 'longitude': -4.52943, 'altitude': 30}, {'latitude': 55.7882, 'longitude': -4.52943, 'altitude': 30}]",0.0029208660579227805,-0.0029052848184549433,0.00030129495843872326,0.0
2025-07-14T15:32:38.862000Z,1752507158862,drone1,30.0,55.788199998516504,-4.52942997455799,42.500000000000014,0.0,0,7.283167010385218,0.0,-72.92184295970453,275.9207320902266,0,4.58,4.58,True,"[{'latitude': 55.7882, 'longitude': -4.52943, 'altitude': 30}, {'latitude': 55.7882, 'longitude': -4.53213, 'altitude': 30}, {'latitude': 55.78948, 'longitude': -4.53213, 'altitude': 30}, {'latitude': 55.78948, 'longitude': -4.52943, 'altitude': 30}, {'latitude': 55.7882, 'longitude': -4.52943, 'altitude': 30}]",0.0015583420910764906,-0.001550029123929635,0.0001607475903103292,0.0
2025-07-14T15:32:39.864000Z,1752507159864,drone1,30.0,55.78819999926789,-4.529429987444203,42.45000000000002,0.0,0,6.245016824629319,0.0,-74.09959415138685,275.92077986792594,0,4.58,4.58,True,"[{'latitude': 55.7882, 'longitude': -4.52943, 'altitude': 30}, {'latitude': 55.7882, 'longitude': -4.53213, 'altitude': 30}, {'latitude': 55.78948, 'longitude': -4.53213, 'altitude': 30}, {'latitude': 55.78948, 'longitude': -4.52943, 'altitude': 30}, {'latitude': 55.7882, 'longitude': -4.52943, 'altitude': 30}]",0.0008092525241539189,-0.0008049355686524692,8.347681215532385e-05,0.0
2025-07-14T15:32:40.865000Z,1752507160865,drone1,30.0,55.78819999964821,-4.529429993966695,42.40000000000002,0.0,0,7.453962279473407,0.0,-72.24913409692601,275.92076124443315,0,4.58,4.58,True,"[{'latitude': 55.7882, 'longitude': -4.52943, 'altitude': 30}, {'latitude': 55.7882, 'longitude': -4.53213, 'altitude': 30}, {'latitude': 55.78948, 'longitude': -4.53213, 'altitude': 30}, {'latitude': 55.78948, 'longitude': -4.52943, 'altitude': 30}, {'latitude': 55.7882, 'longitude': -4.52943, 'altitude': 30}]",0.0004100208192091039,-0.00040783360146128407,4.229451151181663e-05,0.0
2025-07-14T15:32:41.867000Z,1752507161867,drone1,30.0,55.78819999983553,-4.529429997179234,42.35000000000002,0.0,0,6.581460915616589,0.0,-72.59763596529689,275.9208062986213,0,4.58,4.58,True,"[{'latitude': 55.7882, 'longitude': -4.52943, 'altitude': 30}, {'latitude': 55.7882, 'longitude': -4.53213, 'altitude': 30}, {'latitude': 55.78948, 'longitude': -4.53213, 'altitude': 30}, {'latitude': 55.78948, 'longitude': -4.52943, 'altitude': 30}, {'latitude': 55.7882, 'longitude': -4.52943, 'altitude': 30}]",0.00020174701544772915,-0.00020067079844622847,2.0810787900015155e-05,0.0
2025-07-14T15:32:42.868000Z,1752507162868,drone1,30.0,55.78819999992524,-4.529429998717833,42.300000000000026,0.0,0,5.90291211822381,0.0,-73.05503149132828,275.92051511668967,0,4.58,4.58,True,"[{'latitude': 55.7882, 'longitude': -4.52943, 'altitude': 30}, {'latitude': 55.7882, 'longitude': -4.53213, 'altitude': 30}, {'latitude': 55.78948, 'longitude': -4.53213, 'altitude': 30}, {'latitude': 55.78948, 'longitude': -4.52943, 'altitude': 30}, {'latitude': 55.7882, 'longitude': -4.52943, 'altitude': 30}]",9.672036111087773e-05,-9.620442227018224e-05,9.976842640788357e-06,0.0
2025-07-14T15:32:43.870000Z,1752507163870,drone1,30.0,55.78819999996699,-4.529429999433848,42.25000000000003,0.0,0,4.802781315515077,0.0,-73.54130174184672,275.91999250000293,0,4.58,4.58,True,"[{'latitude': 55.7882, 'longitude': -4.52943, 'altitude': 30}, {'latitude': 55.7882, 'longitude': -4.53213, 'altitude': 30}, {'latitude': 55.78948, 'longitude': -4.53213, 'altitude': 30}, {'latitude': 55.78948, 'longitude': -4.52943, 'altitude': 30}, {'latitude': 55.7882, 'longitude': -4.52943, 'altitude': 30}]",4.496565211576228e-05,-4.472576879255411e-05,4.6384777794821935e-06,0.0
2025-07-14T15:32:44.872000Z,1752507164872,drone1,30.0,55.788199999985856,-4.5294299997573635,42.20000000000003,0.0,0,6.777377621259999,0.0,-74.8067861554012,275.9227274836994,0,4.58,4.58,True,"[{'latitude': 55.7882, 'longitude': -4.52943, 'altitude': 30}, {'latitude': 55.7882, 'longitude': -4.53213, 'altitude': 30}, {'latitude': 55.78948, 'longitude': -4.53213, 'altitude': 30}, {'latitude': 55.78948, 'longitude': -4.52943, 'altitude': 30}, {'latitude': 55.7882, 'longitude': -4.52943, 'altitude': 30}]",2.0316739244300526e-05,-2.0208348431144634e-05,2.0958404534590237e-06,0.0
2025-07-14T15:32:45.874000Z,1752507165874,drone1,30.0,55.78819999999413,-4.529429999899164,42.150000000000034,0.0,0,8.528593133002657,0.0,-76.15267648060995,275.9215997514426,0,4.58,4.58,True,"[{'latitude': 55.7882, 'longitude': -4.52943, 'altitude': 30}, {'latitude': 55.7882, 'longitude': -4.53213, 'altitude': 30}, {'latitude': 55.78948, 'longitude': -4.53213, 'altitude': 30}, {'latitude': 55.78948, 'longitude': -4.52943, 'altitude': 30}, {'latitude': 55.7882, 'longitude': -4.52943, 'altitude': 30}]",8.905071875493416e-06,-8.85753982768901e-06,9.188543456972895e-07,0.0
2025-07-14T15:32:46.876000Z,1752507166876,drone1,30.0,55.78819999999764,-4.529429999959404,42.10000000000004,0.0,0,10.395012374851365,0.0,-75.10922726099002,275.913426259348,0,4.58,4.58,True,"[{'latitude': 55.7882, 'longitude': -4.52943, 'altitude': 30}, {'latitude': 55.7882, 'longitude': -4.53213, 'altitude': 30}, {'latitude': 55.78948, 'longitude': -4.53213, 'altitude': 30}, {'latitude': 55.78948, 'longitude': -4.52943, 'altitude': 30}, {'latitude': 55.7882, 'longitude': -4.52943, 'altitude': 30}]",3.7830244319550155e-06,-3.76287186130601e-06,3.899605212839012e-07,0.0
2025-07-14T15:32:47.878000Z,1752507167878,drone1,30.0,55.78819999999908,-4.529429999984183,42.05000000000004,0.0,0,9.15499296194016,0.0,-74.78941363832416,275.91714671368084,0,4.58,4.58,True,"[{'latitude': 55.7882, 'longitude': -4.52943, 'altitude': 30}, {'latitude': 55.7882, 'longitude': -4.53213, 'altitude': 30}, {'latitude': 55.78948, 'longitude': -4.53213, 'altitude': 30}, {'latitude': 55.78948, 'longitude': -4.52943, 'altitude': 30}, {'latitude': 55.7882, 'longitude': -4.52943, 'altitude': 30}]",1.556108066249627e-06,-1.5478350150178356e-06,1.6024693485957882e-07,0.0
2025-07-14T15:32:48.880000Z,1752507168880,drone1,30.0,55.788199999999655,-4.529429999994043,42.00000000000004,0.0,0,8.205321094827214,0.0,-73.78455206901599,275.92864650773225,0,4.58,4.58,True,"[{'latitude': 55.7882, 'longitude': -4.52943, 'altitude': 30}, {'latitude': 55.7882, 'longitude': -4.53213, 'altitude': 30}, {'latitude': 55.78948, 'longitude': -4.53213, 'altitude': 30}, {'latitude': 55.78948, 'longitude': -4.52943, 'altitude': 30}, {'latitude': 55.7882, 'longitude': -4.52943, 'altitude': 30}]",6.191931535424294e-07,-6.158828811682338e-07,6.394089519027529e-08,0.0
2025-07-14T15:32:49.882000Z,1752507169882,drone1,30.0,55.788199999999875,-4.529429999997833,41.950000000000045,0.0,0,8.310109495278283,0.0,-75.35326133328293,275.8788156224329,0,4.58,4.58,True,"[{'latitude': 55.7882, 'longitude': -4.52943, 'altitude': 30}, {'latitude': 55.7882, 'longitude': -4.53213, 'altitude': 30}, {'latitude': 55.78948, 'longitude': -4.53213, 'altitude': 30}, {'latitude': 55.78948, 'longitude': -4.52943, 'altitude': 30}, {'latitude': 55.7882, 'longitude': -4.52943, 'altitude': 30}]",2.3804955568620671e-07,-2.367884097672277e-07,2.447120680121647e-08,0.0
2025-07-14T15:32:50.883000Z,1752507170883,drone1,30.0,55.78819999999996,-4.52942999999924,41.90000000000005,0.0,0,9.20573365559775,0.0,-74.78456704206384,275.9681049231997,0,4.58,4.58,True,"[{'latitude': 55.7882, 'longitude': -4.52943, 'altitude': 30}, {'latitude': 55.7882, 'longitude': -4.53213, 'altitude': 30}, {'latitude': 55.78948, 'longitude': -4.53213, 'altitude': 30}, {'latitude': 55.78948, 'longitude': -4.52943, 'altitude': 30}, {'latitude': 55.7882, 'longitude': -4.52943, 'altitude': 30}]",8.84775998298797e-08,-8.796802699489589e-08,9.482188475325542e-09,0.0
2025-07-14T15:32:51.885000Z,1752507171885,drone1,30.0,55.78819999999999,-4.529429999999743,41.85000000000005,0.0,0,9.490928915926398,0.0,-73.28106782057593,276.4202726579369,0,4.58,4.58,True,"[{'latitude': 55.7882, 'longitude': -4.52943, 'altitude': 30}, {'latitude': 55.7882, 'longitude': -4.53213, 'altitude': 30}, {'latitude': 55.78948, 'longitude': -4.53213, 'altitude': 30}, {'latitude': 55.78948, 'longitude': -4.52943, 'altitude': 30}, {'latitude': 55.7882, 'longitude': -4.52943, 'altitude': 30}]",3.1560004271603954e-08,-3.1401649467724966e-08,3.157575071124706e-09,0.0
2025-07-14T15:32:52.887000Z,1752507172887,drone1,30.0,55.788199999999996,-4.529429999999916,41.800000000000054,0.0,0,8.959403364876977,0.0,-74.76508550249174,273.7374187316913,0,4.58,4.58,True,"[{'latitude': 55.7882, 'longitude': -4.52943, 'altitude': 30}, {'latitude': 55.7882, 'longitude': -4.53213, 'altitude': 30}, {'latitude': 55.78948, 'longitude': -4.53213, 'altitude': 30}, {'latitude': 55.78948, 'longitude': -4.52943, 'altitude': 30}, {'latitude': 55.7882, 'longitude': -4.52943, 'altitude': 30}]",1.0847350869106267e-08,-1.0818589480929977e-08,7.893937677811765e-10,0.0
2025-07-14T15:32:53.889000Z,1752507173889,drone1,30.0,55.7882,-4.529429999999974,41.75000000000006,0.0,0,9.933360105574423,0.0,-74.64414225920063,281.08767482033477,0,4.58,4.58,True,"[{'latitude': 55.7882, 'longitude': -4.52943, 'altitude': 30}, {'latitude': 55.7882, 'longitude': -4.53213, 'altitude': 30}, {'latitude': 55.78948, 'longitude': -4.53213, 'altitude': 30}, {'latitude': 55.78948, 'longitude': -4.52943, 'altitude': 30}, {'latitude': 55.7882, 'longitude': -4.52943, 'altitude': 30}]",3.6915844391503723e-09,-3.606196493643324e-09,7.893937677811765e-10,0.0
2025-07-14T15:32:54.891000Z,1752507174891,drone1,30.0,55.7882,-4.529429999999992,41.70000000000006,0.0,0,8.124756969053955,0.0,-76.47376894336007,270.0,0,4.58,4.58,True,"[{'latitude': 55.7882, 'longitude': -4.52943, 'altitude': 30}, {'latitude': 55.7882, 'longitude': -4.53213, 'altitude': 30}, {'latitude': 55.78948, 'longitude': -4.53213, 'altitude': 30}, {'latitude': 55.78948, 'longitude': -4.52943, 'altitude': 30}, {'latitude': 55.7882, 'longitude': -4.52943, 'altitude': 30}]",1.1095989211210228e-09,-1.1095989211210228e-09,0.0,0.0
2025-07-14T15:32:55.892000Z,1752507175892,drone1,30.0,55.7882,-4.529429999999997,41.65000000000006,0.0,0,7.054668181841819,0.0,-77.52520784644109,270.0,0,4.58,4.58,True,"[{'latitude': 55.7882, 'longitude': -4.52943, 'altitude': 30}, {'latitude': 55.7882, 'longitude': -4.53213, 'altitude': 30}, {'latitude': 55.78948, 'longitude': -4.53213, 'altitude': 30}, {'latitude': 55.78948, 'longitude': -4.52943, 'altitude': 30}, {'latitude': 55.7882, 'longitude': -4.52943, 'altitude': 30}]",3.332122234655139e-10,-3.332122234655139e-10,0.0,0.0
2025-07-14T15:32:56.894000Z,1752507176894,drone1,30.0,55.7882,-4.529429999999999,41.600000000000065,0.0,0,5.581663375377669,0.0,-75.6990517747733,270.0,0,4.58,4.58,True,"[{'latitude': 55.7882, 'longitude': -4.52943, 'altitude': 30}, {'latitude': 55.7882, 'longitude': -4.53213, 'altitude': 30}, {'latitude': 55.78948, 'longitude': -4.53213, 'altitude': 30}, {'latitude': 55.78948, 'longitude': -4.52943, 'altitude': 30}, {'latitude': 55.7882, 'longitude': -4.52943, 'altitude': 30}]",1.1095989211210226e-10,-1.1095989211210226e-10,0.0,0.0
2025-07-14T15:32:57.896000Z,1752507177896,drone1,30.0,55.7882,-4.52943,41.55000000000007,0.0,0,4.782313044236179,0.0,-76.13084026379637,270.0,0,4.58,4.58,True,"[{'latitude': 55.7882, 'longitude': -4.52943, 'altitude': 30}, {'latitude': 55.7882, 'longitude': -4.53213, 'altitude': 30}, {'latitude': 55.78948, 'longitude': -4.53213, 'altitude': 30}, {'latitude': 55.78948, 'longitude': -4.52943, 'altitude': 30}, {'latitude': 55.7882, 'longitude': -4.52943, 'altitude': 30}]",5.547994605605113e-11,-5.547994605605113e-11,0.0,0.0
2025-07-14T15:32:58.898000Z,1752507178898,drone1,30.0,55.7882,-4.52943,41.50000000000007,0.0,0,5.661709940278103,0.0,-76.33728240553177,0.0,0,4.58,4.58,True,"[{'latitude': 55.7882, 'longitude': -4.52943, 'altitude': 30}, {'latitude': 55.7882, 'longitude': -4.53213, 'altitude': 30}, {'latitude': 55.78948, 'longitude': -4.53213, 'altitude': 30}, {'latitude': 55.78948, 'longitude': -4.52943, 'altitude': 30}, {'latitude': 55.7882, 'longitude': -4.52943, 'altitude': 30}]",0.0,0.0,0.0,0.0
2025-07-14T15:32:59.900000Z,1752507179900,drone1,30.0,55.7882,-4.52943,41.450000000000074,0.0,0,7.097068678603458,0.0,-74.6740582867799,0.0,0,4.58,4.58,True,"[{'latitude': 55.7882, 'longitude': -4.52943, 'altitude': 30}, {'latitude': 55.7882, 'longitude': -4.53213, 'altitude': 30}, {'latitude': 55.78948, 'longitude': -4.53213, 'altitude': 30}, {'latitude': 55.78948, 'longitude': -4.52943, 'altitude': 30}, {'latitude': 55.7882, 'longitude': -4.52943, 'altitude': 30}]",0.0,0.0,0.0,0.0
2025-07-14T15:33:00.902000Z,1752507180902,drone1,30.0,55.7882,-4.52943,41.40000000000008,0.0,0,5.752602510280621,0.0,-74.88643487638807,0.0,0,4.58,4.58,True,"[{'latitude': 55.7882, 'longitude': -4.52943, 'altitude': 30}, {'latitude': 55.7882, 'longitude': -4.53213, 'altitude': 30}, {'latitude': 55.78948, 'longitude': -4.53213, 'altitude': 30}, {'latitude': 55.78948, 'longitude': -4.52943, 'altitude': 30}, {'latitude': 55.7882, 'longitude': -4.52943, 'altitude': 30}]",0.0,0.0,0.0,0.0
2025-07-14T15:33:01.903000Z,1752507181903,drone1,30.0,55.7882,-4.52943,41.35000000000008,0.0,0,4.077187062733131,0.0,-75.50992788577939,0.0,0,4.58,4.58,True,"[{'latitude': 55.7882, 'longitude': -4.52943, 'altitude': 30}, {'latitude': 55.7882, 'longitude': -4.53213, 'altitude': 30}, {'latitude': 55.78948, 'longitude': -4.53213, 'altitude': 30}, {'latitude': 55.78948, 'longitude': -4.52943, 'altitude': 30}, {'latitude': 55.7882, 'longitude': -4.52943, 'altitude': 30}]",0.0,0.0,0.0,0.0
2025-07-14T15:33:02.905000Z,1752507182905,drone1,30.0,55.7882,-4.52943,41.30000000000008,0.0,0,3.5538192087696814,0.0,-76.3959673550299,0.0,0,4.58,4.58,True,"[{'latitude': 55.7882, 'longitude': -4.52943, 'altitude': 30}, {'latitude': 55.7882, 'longitude': -4.53213, 'altitude': 30}, {'latitude': 55.78948, 'longitude': -4.53213, 'altitude': 30}, {'latitude': 55.78948, 'longitude': -4.52943, 'altitude': 30}, {'latitude': 55.7882, 'longitude': -4.52943, 'altitude': 30}]",0.0,0.0,0.0,0.0
2025-07-14T15:33:03.907000Z,1752507183907,drone1,30.0,55.7882,-4.52943,41.250000000000085,0.0,0,1.801642391990443,0.0,-77.40672679045676,0.0,0,4.58,4.58,True,"[{'latitude': 55.7882, 'longitude': -4.52943, 'altitude': 30}, {'latitude': 55.7882, 'longitude': -4.53213, 'altitude': 30}, {'latitude': 55.78948, 'longitude': -4.53213, 'altitude': 30}, {'latitude': 55.78948, 'longitude': -4.52943, 'altitude': 30}, {'latitude': 55.7882, 'longitude': -4.52943, 'altitude': 30}]",0.0,0.0,0.0,0.0
2025-07-14T15:33:04.909000Z,1752507184909,drone1,30.0,55.7882,-4.52943,41.20000000000009,0.0,0,1.7987929286696929,0.0,-78.64922259638288,0.0,0,4.58,4.58,True,"[{'latitude': 55.7882, 'longitude': -4.52943, 'altitude': 30}, {'latitude': 55.7882, 'longitude': -4.53213, 'altitude': 30}, {'latitude': 55.78948, 'longitude': -4.53213, 'altitude': 30}, {'latitude': 55.78948, 'longitude': -4.52943, 'altitude': 30}, {'latitude': 55.7882, 'longitude': -4.52943, 'altitude': 30}]",0.0,0.0,0.0,0.0
2025-07-14T15:33:05.911000Z,1752507185911,drone1,30.0,55.7882,-4.52943,41.15000000000009,0.0,0,2.0992737051942103,0.0,-76.88287042873738,0.0,0,4.58,4.58,True,"[{'latitude': 55.7882, 'longitude': -4.52943, 'altitude': 30}, {'latitude': 55.7882, 'longitude': -4.53213, 'altitude': 30}, {'latitude': 55.78948, 'longitude': -4.53213, 'altitude': 30}, {'latitude': 55.78948, 'longitude': -4.52943, 'altitude': 30}, {'latitude': 55.7882, 'longitude': -4.52943, 'altitude': 30}]",0.0,0.0,0.0,0.0
2025-07-14T15:33:06.913000Z,1752507186913,drone1,30.0,55.7882,-4.52943,41.100000000000094,0.0,0,0.7574862525799868,0.0,-75.83036760659256,0.0,0,4.58,4.58,True,"[{'latitude': 55.7882, 'longitude': -4.52943, 'altitude': 30}, {'latitude': 55.7882, 'longitude': -4.53213, 'altitude': 30}, {'latitude': 55.78948, 'longitude': -4.53213, 'altitude': 30}, {'latitude': 55.78948, 'longitude': -4.52943, 'altitude': 30}, {'latitude': 55.7882, 'longitude': -4.52943, 'altitude': 30}]",0.0,0.0,0.0,0.0
2025-07-14T15:33:07.914000Z,1752507187914,drone1,30.0,55.7882,-4.52943,41.0500000000001,0.0,0,1.3501754083542483,0.0,-76.01945740926494,0.0,0,4.58,4.58,True,"[{'latitude': 55.7882, 'longitude': -4.52943, 'altitude': 30}, {'latitude': 55.7882, 'longitude': -4.53213, 'altitude': 30}, {'latitude': 55.78948, 'longitude': -4.53213, 'altitude': 30}, {'latitude': 55.78948, 'longitude': -4.52943, 'altitude': 30}, {'latitude': 55.7882, 'longitude': -4.52943, 'altitude': 30}]",0.0,0.0,0.0,0.0
2025-07-14T15:33:08.916000Z,1752507188916,drone1,30.0,55.7882,-4.52943,41.0000000000001,0.0,0,2.327228590807833,0.0,-76.41940419370373,0.0,0,4.58,4.58,True,"[{'latitude': 55.7882, 'longitude': -4.52943, 'altitude': 30}, {'latitude': 55.7882, 'longitude': -4.53213, 'altitude': 30}, {'latitude': 55.78948, 'longitude': -4.53213, 'altitude': 30}, {'latitude': 55.78948, 'longitude': -4.52943, 'altitude': 30}, {'latitude': 55.7882, 'longitude': -4.52943, 'altitude': 30}]",0.0,0.0,0.0,0.0
2025-07-14T15:33:09.917000Z,1752507189917,drone1,30.0,55.7882,-4.52943,40.9500000000001,0.0,0,0.681430448650262,0.0,-77.8261253225755,0.0,0,4.58,4.58,True,"[{'latitude': 55.7882, 'longitude': -4.52943, 'altitude': 30}, {'latitude': 55.7882, 'longitude': -4.53213, 'altitude': 30}, {'latitude': 55.78948, 'longitude': -4.53213, 'altitude': 30}, {'latitude': 55.78948, 'longitude': -4.52943, 'altitude': 30}, {'latitude': 55.7882, 'longitude': -4.52943, 'altitude': 30}]",0.0,0.0,0.0,0.0
2025-07-14T15:33:10.919000Z,1752507190919,drone1,30.0,55.7882,-4.52943,40.900000000000105,0.0,0,1.8521563357404989,0.0,-78.32208806349378,0.0,0,4.58,4.58,True,"[{'latitude': 55.7882, 'longitude': -4.52943, 'altitude': 30}, {'latitude': 55.7882, 'longitude': -4.53213, 'altitude': 30}, {'latitude': 55.78948, 'longitude': -4.53213, 'altitude': 30}, {'latitude': 55.78948, 'longitude': -4.52943, 'altitude': 30}, {'latitude': 55.7882, 'longitude': -4.52943, 'altitude': 30}]",0.0,0.0,0.0,0.0
2025-07-14T15:33:11.920000Z,1752507191920,drone1,30.0,55.7882,-4.52943,40.85000000000011,0.0,0,2.1052502523079215,0.0,-78.50739170771855,0.0,0,4.58,4.58,True,"[{'latitude': 55.7882, 'longitude': -4.52943, 'altitude': 30}, {'latitude': 55.7882, 'longitude': -4.53213, 'altitude': 30}, {'latitude': 55.78948, 'longitude': -4.53213, 'altitude': 30}, {'latitude': 55.78948, 'longitude': -4.52943, 'altitude': 30}, {'latitude': 55.7882, 'longitude': -4.52943, 'altitude': 30}]",0.0,0.0,0.0,0.0
2025-07-14T15:33:12.922000Z,1752507192922,drone1,30.0,55.7882,-4.52943,40.80000000000011,0.0,0,2.7068746095850216,0.0,-79.40304240708292,0.0,0,4.58,4.58,True,"[{'latitude': 55.7882, 'longitude': -4.52943, 'altitude': 30}, {'latitude': 55.7882, 'longitude': -4.53213, 'altitude': 30}, {'latitude': 55.78948, 'longitude': -4.53213, 'altitude': 30}, {'latitude': 55.78948, 'longitude': -4.52943, 'altitude': 30}, {'latitude': 55.7882, 'longitude': -4.52943, 'altitude': 30}]",0.0,0.0,0.0,0.0
2025-07-14T15:33:13.924000Z,1752507193924,drone1,30.0,55.7882,-4.52943,40.750000000000114,0.0,0,1.9759189356610816,0.0,-77.56215290064382,0.0,0,4.58,4.58,True,"[{'latitude': 55.7882, 'longitude': -4.52943, 'altitude': 30}, {'latitude': 55.7882, 'longitude': -4.53213, 'altitude': 30}, {'latitude': 55.78948, 'longitude': -4.53213, 'altitude': 30}, {'latitude': 55.78948, 'longitude': -4.52943, 'altitude': 30}, {'latitude': 55.7882, 'longitude': -4.52943, 'altitude': 30}]",0.0,0.0,0.0,0.0
2025-07-14T15:33:14.926000Z,1752507194926,drone1,30.0,55.7882,-4.52943,40.70000000000012,0.0,0,1.7656449210071425,0.0,-79.4393684442935,0.0,0,4.58,4.58,True,"[{'latitude': 55.7882, 'longitude': -4.52943, 'altitude': 30}, {'latitude': 55.7882, 'longitude': -4.53213, 'altitude': 30}, {'latitude': 55.78948, 'longitude': -4.53213, 'altitude': 30}, {'latitude': 55.78948, 'longitude': -4.52943, 'altitude': 30}, {'latitude': 55.7882, 'longitude': -4.52943, 'altitude': 30}]",0.0,0.0,0.0,0.0
2025-07-14T15:33:15.928000Z,1752507195928,drone1,30.0,55.7882,-4.52943,40.65000000000012,0.0,0,2.0654384430029094,0.0,-78.62329981880096,0.0,0,4.58,4.58,True,"[{'latitude': 55.7882, 'longitude': -4.52943, 'altitude': 30}, {'latitude': 55.7882, 'longitude': -4.53213, 'altitude': 30}, {'latitude': 55.78948, 'longitude': -4.53213, 'altitude': 30}, {'latitude': 55.78948, 'longitude': -4.52943, 'altitude': 30}, {'latitude': 55.7882, 'longitude': -4.52943, 'altitude': 30}]",0.0,0.0,0.0,0.0
2025-07-14T15:33:16.930000Z,1752507196930,drone1,30.0,55.7882,-4.52943,40.60000000000012,0.0,0,3.7773647920730946,0.0,-78.07374069096593,0.0,0,4.58,4.58,True,"[{'latitude': 55.7882, 'longitude': -4.52943, 'altitude': 30}, {'latitude': 55.7882, 'longitude': -4.53213, 'altitude': 30}, {'latitude': 55.78948, 'longitude': -4.53213, 'altitude': 30}, {'latitude': 55.78948, 'longitude': -4.52943, 'altitude': 30}, {'latitude': 55.7882, 'longitude': -4.52943, 'altitude': 30}]",0.0,0.0,0.0,0.0
2025-07-14T15:33:17.931000Z,1752507197931,drone1,30.0,55.7882,-4.52943,40.550000000000125,0.0,0,4.671003758754072,0.0,-79.85126904430835,0.0,0,4.58,4.58,True,"[{'latitude': 55.7882, 'longitude': -4.52943, 'altitude': 30}, {'latitude': 55.7882, 'longitude': -4.53213, 'altitude': 30}, {'latitude': 55.78948, 'longitude': -4.53213, 'altitude': 30}, {'latitude': 55.78948, 'longitude': -4.52943, 'altitude': 30}, {'latitude': 55.7882, 'longitude': -4.52943, 'altitude': 30}]",0.0,0.0,0.0,0.0
2025-07-14T15:33:18.933000Z,1752507198933,drone1,30.0,55.7882,-4.529475,40.50000000000013,1.0,0,4.955224968641991,0.0,-81.83497932393284,270.0000186039459,0,4.58,4.58,True,"[{'latitude': 55.7882, 'longitude': -4.52943, 'altitude': 30}, {'latitude': 55.7882, 'longitude': -4.53213, 'altitude': 30}, {'latitude': 55.78948, 'longitude': -4.53213, 'altitude': 30}, {'latitude': 55.78948, 'longitude': -4.52943, 'altitude': 30}, {'latitude': 55.7882, 'longitude': -4.52943, 'altitude': 30}]",2.810918974330925,-2.810918974330925,0.0,0.0
2025-07-14T15:33:19.935000Z,1752507199935,drone1,30.0,55.7882,-4.5295635,40.45000000000013,1.0,0,5.179030260732985,0.0,-80.16746552683328,270.0000365933635,0,4.58,4.58,True,"[{'latitude': 55.7882, 'longitude': -4.52943, 'altitude': 30}, {'latitude': 55.7882, 'longitude': -4.53213, 'altitude': 30}, {'latitude': 55.78948, 'longitude': -4.53213, 'altitude': 30}, {'latitude': 55.78948, 'longitude': -4.52943, 'altitude': 30}, {'latitude': 55.7882, 'longitude': -4.52943, 'altitude': 30}]",5.52814064953228,-5.52814064953228,0.0,0.0
2025-07-14T15:33:20.937000Z,1752507200937,drone1,30.0,55.7882,-4.5296918250000004,40.400000000000134,1.0,0,7.117402276877485,0.0,-78.27951027978168,270.0000530599225,0,4.58,4.58,True,"[{'latitude': 55.7882, 'longitude': -4.52943, 'altitude': 30}, {'latitude': 55.7882, 'longitude': -4.53213, 'altitude': 30}, {'latitude': 55.78948, 'longitude': -4.53213, 'altitude': 30}, {'latitude': 55.78948, 'longitude': -4.52943, 'altitude': 30}, {'latitude': 55.7882, 'longitude': -4.52943, 'altitude': 30}]",8.015803941810711,-8.015803941810711,0.0,0.0
2025-07-14T15:33:21.939000Z,1752507201939,drone1,30.0,55.7882,-4.529854370000001,40.350000000000136,1.0,0,8.324488758877417,0.0,-79.38524149123143,270.0000672088984,0,4.58,4.58,True,"[{'latitude': 55.7882, 'longitude': -4.52943, 'altitude': 30}, {'latitude': 55.7882, 'longitude': -4.53213, 'altitude': 30}, {'latitude': 55.78948, 'longitude': -4.53213, 'altitude': 30}, {'latitude': 55.78948, 'longitude': -4.52943, 'altitude': 30}, {'latitude': 55.7882, 'longitude': -4.52943, 'altitude': 30}]",10.153351659612106,-10.153351659612106,0.0,0.0
2025-07-14T15:33:22.940000Z,1752507202940,drone1,30.0,55.7882,-4.530044005833334,40.30000000000014,1.0,0,9.192492727422742,0.0,-78.44679996503146,270.00007841104605,0,4.58,4.58,True,"[{'latitude': 55.7882, 'longitude': -4.52943, 'altitude': 30}, {'latitude': 55.7882, 'longitude': -4.53213, 'altitude': 30}, {'latitude': 55.78948, 'longitude': -4.53213, 'altitude': 30}, {'latitude': 55.78948, 'longitude': -4.52943, 'altitude': 30}, {'latitude': 55.7882, 'longitude': -4.52943, 'altitude': 30}]",11.857410679388634,-11.857410679388634,0.0,0.0
2025-07-14T15:33:23.942000Z,1752507203942,drone1,30.0,55.7882,-4.53025260525,40.25000000000014,1.0,0,8.477224609880404,0.0,-76.88436708840624,270.0000862515603,0,4.58,4.58,True,"[{'latitude': 55.7882, 'longitude': -4.52943, 'altitude': 30}, {'latitude': 55.7882, 'longitude': -4.53213, 'altitude': 30}, {'latitude': 55.78948, 'longitude': -4.53213, 'altitude': 30}, {'latitude': 55.78948, 'longitude': -4.52943, 'altitude': 30}, {'latitude': 55.7882, 'longitude': -4.52943, 'altitude': 30}]",13.030134629792999,-13.030134629792999,0.0,0.0
2025-07-14T15:33:24.944000Z,1752507204944,drone1,30.0,55.7882,-4.5304716346375,40.200000000000145,1.0,0,9.207202615819142,0.0,-75.97394289173593,270.00009056416786,0,4.58,4.58,True,"[{'latitude': 55.7882, 'longitude': -4.52943, 'altitude': 30}, {'latitude': 55.7882, 'longitude': -4.53213, 'altitude': 30}, {'latitude': 55.78948, 'longitude': -4.53213, 'altitude': 30}, {'latitude': 55.78948, 'longitude': -4.52943, 'altitude': 30}, {'latitude': 55.7882, 'longitude': -4.52943, 'altitude': 30}]",13.681641361304843,-13.681641361304843,0.0,0.0
2025-07-14T15:33:25.946000Z,1752507205946,drone1,30.0,55.7882,-4.530692750019167,40.15000000000015,1.0,0,11.15560850189102,0.0,-74.34998910419404,270.00009142770455,0,4.58,4.58,True,"[{'latitude': 55.7882, 'longitude': -4.52943, 'altitude': 30}, {'latitude': 55.7882, 'longitude': -4.53213, 'altitude': 30}, {'latitude': 55.78948, 'longitude': -4.53213, 'altitude': 30}, {'latitude': 55.78948, 'longitude': -4.52943, 'altitude': 30}, {'latitude': 55.7882, 'longitude': -4.52943, 'altitude': 30}]",13.811942707607209,-13.811942707607209,0.0,0.0
2025-07-14T15:33:26.948000Z,1752507206948,drone1,30.0,55.7882,-4.530908337516292,40.10000000000015,1.0,0,9.522749813224614,0.0,-74.44255115549447,270.00008914158536,0,4.58,4.58,True,"[{'latitude': 55.7882, 'longitude': -4.52943, 'altitude': 30}, {'latitude': 55.7882, 'longitude': -4.53213, 'altitude': 30}, {'latitude': 55.78948, 'longitude': -4.53213, 'altitude': 30}, {'latitude': 55.78948, 'longitude': -4.52943, 'altitude': 30}, {'latitude': 55.7882, 'longitude': -4.52943, 'altitude': 30}]",13.46664413994477,-13.46664413994477,0.0,0.0
2025-07-14T15:33:27.950000Z,1752507207950,drone1,30.0,55.7882,-4.531111947930244,40.05000000000015,1.0,0,11.333260544972346,0.0,-74.0822088455646,270.000084189619,0,4.58,4.58,True,"[{'latitude': 55.7882, 'longitude': -4.52943, 'altitude': 30}, {'latitude': 55.7882, 'longitude': -4.53213, 'altitude': 30}, {'latitude': 55.78948, 'longitude': -4.53213, 'altitude': 30}, {'latitude': 55.78948, 'longitude': -4.52943, 'altitude': 30}, {'latitude': 55.7882, 'longitude': -4.52943, 'altitude': 30}]",12.71849724325035,-12.71849724325035,0.0,0.0
2025-07-14T15:33:28.952000Z,1752507208952,drone1,30.0,55.7882,-4.531298590809699,40.000000000000156,1.0,0,9.866090381457283,0.0,-75.98859204554813,270.00007717303356,0,4.58,4.58,True,"[{'latitude': 55.7882, 'longitude': -4.52943, 'altitude': 30}, {'latitude': 55.7882, 'longitude': -4.53213, 'altitude': 30}, {'latitude': 55.78948, 'longitude': -4.53213, 'altitude': 30}, {'latitude': 55.78948, 'longitude': -4.52943, 'altitude': 30}, {'latitude': 55.7882, 'longitude': -4.52943, 'altitude': 30}]",11.658622472997981,-11.658622472997981,0.0,0.0
2025-07-14T15:33:29.954000Z,1752507209954,drone1,30.0,55.7882,-4.53146487264776,39.95000000000016,1.0,0,8.14901951507468,0.0,-75.21357117091956,270.00006875480733,0,4.58,4.58,True,"[{'latitude': 55.7882, 'longitude': -4.52943, 'altitude': 30}, {'latitude': 55.7882, 'longitude': -4.53213, 'altitude': 30}, {'latitude': 55.78948, 'longitude': -4.53213, 'altitude': 30}, {'latitude': 55.78948, 'longitude': -4.52943, 'altitude': 30}, {'latitude': 55.7882, 'longitude': -4.52943, 'altitude': 30}]",10.386772748672946,-10.386772748672946,0.0,0.0
2025-07-14T15:33:30.956000Z,1752507210956,drone1,30.0,55.7882,-4.5316089835740785,39.90000000000016,1.0,0,6.406768878259552,0.0,-73.23739621586296,270.0000595881894,0,4.58,4.58,True,"[{'latitude': 55.7882, 'longitude': -4.52943, 'altitude': 30}, {'latitude': 55.7882, 'longitude': -4.53213, 'altitude': 30}, {'latitude': 55.78948, 'longitude': -4.53213, 'altitude': 30}, {'latitude': 55.78948, 'longitude': -4.52943, 'altitude': 30}, {'latitude': 55.7882, 'longitude': -4.52943, 'altitude': 30}]",9.001869715475868,-9.001869715475868,0.0,0.0
2025-07-14T15:33:31.957000Z,1752507211957,drone1,30.0,55.7882,-4.5317305540734605,39.850000000000165,1.0,0,5.5549318636398475,0.0,-74.49910538096923,270.00005026532295,0,4.58,4.58,True,"[{'latitude': 55.7882, 'longitude': -4.52943, 'altitude': 30}, {'latitude': 55.7882, 'longitude': -4.53213, 'altitude': 30}, {'latitude': 55.78948, 'longitude': -4.53213, 'altitude': 30}, {'latitude': 55.78948, 'longitude': -4.52943, 'altitude': 30}, {'latitude': 55.7882, 'longitude': -4.52943, 'altitude': 30}]",7.601471263803906,-7.601471263803906,0.0,0.0
2025-07-14T15:33:32.959000Z,1752507212959,drone1,30.0,55.7882,-4.5318304155550955,39.80000000000017,1.0,0,4.499836873048188,0.0,-75.77077357491177,270.00004129053985,0,4.58,4.58,True,"[{'latitude': 55.7882, 'longitude': -4.52943, 'altitude': 30}, {'latitude': 55.7882, 'longitude': -4.53213, 'altitude': 30}, {'latitude': 55.78948, 'longitude': -4.53213, 'altitude': 30}, {'latitude': 55.78948, 'longitude': -4.52943, 'altitude': 30}, {'latitude': 55.7882, 'longitude': -4.52943, 'altitude': 30}]",6.23783407849188,-6.23783407849188,0.0,0.0
2025-07-14T15:33:33.961000Z,1752507213961,drone1,30.0,55.7882,-4.5319103047404035,39.75000000000017,1.0,0,2.935288795534332,0.0,-77.39345321304029,270.00003303210735,0,4.58,4.58,True,"[{'latitude': 55.7882, 'longitude': -4.52943, 'altitude': 30}, {'latitude': 55.7882, 'longitude': -4.53213, 'altitude': 30}, {'latitude': 55.78948, 'longitude': -4.53213, 'altitude': 30}, {'latitude': 55.78948, 'longitude': -4.52943, 'altitude': 30}, {'latitude': 55.7882, 'longitude': -4.52943, 'altitude': 30}]",4.990267262793504,-4.990267262793504,0.0,0.0
2025-07-14T15:33:34.963000Z,1752507214963,drone1,30.0,55.7882,-4.531972551730623,39.70000000000017,1.0,0,4.882150951735013,0.0,-76.61389094523993,270.00002573744484,0,4.58,4.58,True,"[{'latitude': 55.7882, 'longitude': -4.52943, 'altitude': 30}, {'latitude': 55.7882, 'longitude': -4.53213, 'altitude': 30}, {'latitude': 55.78948, 'longitude': -4.53213, 'altitude': 30}, {'latitude': 55.78948, 'longitude': -4.52943, 'altitude': 30}, {'latitude': 55.7882, 'longitude': -4.52943, 'altitude': 30}]",3.8882499089284543,-3.8882499089284543,0.0,0.0
2025-07-14T15:33:35.965000Z,1752507215965,drone1,30.0,55.7882,-4.5320197862114355,39.650000000000176,1.0,0,5.997213822615626,0.0,-76.67226688719505,270.0000195353635,0,4.58,4.58,True,"[{'latitude': 55.7882, 'longitude': -4.52943, 'altitude': 30}, {'latitude': 55.7882, 'longitude': -4.53213, 'altitude': 30}, {'latitude': 55.78948, 'longitude': -4.53213, 'altitude': 30}, {'latitude': 55.78948, 'longitude': -4.52943, 'altitude': 30}, {'latitude': 55.7882, 'longitude': -4.52943, 'altitude': 30}]",2.9504955190983644,-2.9504955190983644,0.0,0.0
2025-07-14T15:33:36.966000Z,1752507216966,drone1,30.0,55.7882,-4.532054687244481,39.60000000000018,1.0,0,6.8668366007071455,0.0,-75.83493424367946,270.00001443131504,0,4.58,4.58,True,"[{'latitude': 55.7882, 'longitude': -4.52943, 'altitude': 30}, {'latitude': 55.7882, 'longitude': -4.53213, 'altitude': 30}, {'latitude': 55.78948, 'longitude': -4.53213, 'altitude': 30}, {'latitude': 55.78948, 'longitude': -4.52943, 'altitude': 30}, {'latitude': 55.7882, 'longitude': -4.52943, 'altitude': 30}]",2.18226626626954,-2.18226626626954,0.0,0.0
2025-07-14T15:33:37.968000Z,1752507217968,drone1,30.0,55.7882,-4.532079791496321,39.55000000000018,1.0,0,7.210576275665341,0.0,-76.09184575800299,270.00001038010964,0,4.58,4.58,True,"[{'latitude': 55.7882, 'longitude': -4.52943, 'altitude': 30}, {'latitude': 55.7882, 'longitude': -4.53213, 'altitude': 30}, {'latitude': 55.78948, 'longitude': -4.53213, 'altitude': 30}, {'latitude': 55.78948, 'longitude': -4.52943, 'altitude': 30}, {'latitude': 55.7882, 'longitude': -4.52943, 'altitude': 30}]",1.5681337296288786,-1.5681337296288786,0.0,0.0
2025-07-14T15:33:38.969000Z,1752507218969,drone1,30.0,55.7882,-4.532097364472609,39.500000000000185,1.0,0,8.6874326151509,0.0,-77.9763324525969,270.00000726681446,0,4.58,4.58,True,"[{'latitude': 55.7882, 'longitude': -4.52943, 'altitude': 30}, {'latitude': 55.7882, 'longitude': -4.53213, 'altitude': 30}, {'latitude': 55.78948, 'longitude': -4.53213, 'altitude': 30}, {'latitude': 55.78948, 'longitude': -4.52943, 'altitude': 30}, {'latitude': 55.7882, 'longitude': -4.52943, 'altitude': 30}]",1.0987902077206206,-1.0987902077206206,0.0,0.0
2025-07-14T15:33:39.971000Z,1752507219971,drone1,30.0,55.7882,-4.532109330832652,39.45000000000019,1.0,0,9.022582822238828,0.0,-78.81436910357236,270.00000492949573,0,4.58,4.58,True,"[{'latitude': 55.7882, 'longitude': -4.52943, 'altitude': 30}, {'latitude': 55.7882, 'longitude': -4.53213, 'altitude': 30}, {'latitude': 55.78948, 'longitude': -4.53213, 'altitude': 30}, {'latitude': 55.78948, 'longitude': -4.52943, 'altitude': 30}, {'latitude': 55.7882, 'longitude': -4.52943, 'altitude': 30}]",0.747477077763135,-0.747477077763135,0.0,0.0
